[
  {
    "id": 1,
    "clinicName": "Bright Breast Clinic",
    "suburb": "Clayton",
    "rating": 4.8,
    "contact": "03 9123 4567",
    "longitude": 145.1213,
    "latitude": -37.918
  },
  {
    "id": 2,
    "clinicName": "Southern Health Centre",
    "suburb": "Frankston",
    "rating": 4.6,
    "contact": "03 9789 8765",
    "longitude": 145.1364,
    "latitude": -38.1444
  },
  {
    "id": 3,
    "clinicName": "CarePlus Medical",
    "suburb": "Caulfield",
    "rating": 4.9,
    "contact": "03 9345 1234",
    "longitude": 145.0243,
    "latitude": -37.8773
  },
  {
    "id": 4,
    "clinicName": "Women's Wellness Hub",
    "suburb": "Berwick",
    "rating": 4.5,
    "contact": "03 9762 9988",
    "longitude": 145.342,
    "latitude": -38.0302
  },
  {
    "id": 5,
    "clinicName": "Pink Ribbon Health",
    "suburb": "Melbourne CBD",
    "rating": 4.7,
    "contact": "03 9654 7777",
    "longitude": 144.9631,
    "latitude": -37.8136
  },
  {
    "id": 6,
    "clinicName": "St. Mary's Breast Care",
    "suburb": "Cheltenham",
    "rating": 4.8,
    "contact": "03 9521 9911",
    "longitude": 145.047,
    "latitude": -37.9651
  },
  {
    "id": 7,
    "clinicName": "Healthy Women Medical",
    "suburb": "Glen Waverley",
    "rating": 4.6,
    "contact": "03 9888 2345",
    "longitude": 145.1651,
    "latitude": -37.8781
  },
  {
    "id": 8,
    "clinicName": "Monash Medical Centre",
    "suburb": "Clayton",
    "rating": 4.9,
    "contact": "03 9555 2222",
    "longitude": 145.1247,
    "latitude": -37.9159
  },
  {
    "id": 9,
    "clinicName": "Mornington Women's Health",
    "suburb": "Mornington",
    "rating": 4.4,
    "contact": "03 9788 5432",
    "longitude": 145.0373,
    "latitude": -38.2176
  },
  {
    "id": 10,
    "clinicName": "Bayside Breast Screening",
    "suburb": "Brighton",
    "rating": 4.7,
    "contact": "03 9592 8765",
    "longitude": 144.9939,
    "latitude": -37.9057
  },
  {
    "id": 11,
    "clinicName": "Rosewell Health Clinic",
    "suburb": "Box Hill",
    "rating": 4.5,
    "contact": "03 9890 7788",
    "longitude": 145.1255,
    "latitude": -37.8186
  },
  {
    "id": 12,
    "clinicName": "East Melbourne Medical",
    "suburb": "Richmond",
    "rating": 4.6,
    "contact": "03 9429 8899",
    "longitude": 144.9989,
    "latitude": -37.8232
  },
  {
    "id": 13,
    "clinicName": "Waverley Women's Centre",
    "suburb": "Mount Waverley",
    "rating": 4.9,
    "contact": "03 9802 6677",
    "longitude": 145.1326,
    "latitude": -37.8776
  },
  {
    "id": 14,
    "clinicName": "South Yarra Breast Care",
    "suburb": "South Yarra",
    "rating": 4.8,
    "contact": "03 9800 5555",
    "longitude": 144.992,
    "latitude": -37.8392
  },
  {
    "id": 15,
    "clinicName": "Hearts & Health Clinic",
    "suburb": "Dandenong",
    "rating": 4.3,
    "contact": "03 9700 4321",
    "longitude": 145.214,
    "latitude": -37.9877
  },
  {
    "id": 16,
    "clinicName": "WellLife Diagnostics",
    "suburb": "Narre Warren",
    "rating": 4.7,
    "contact": "03 9705 7890",
    "longitude": 145.3022,
    "latitude": -38.0282
  },
  {
    "id": 17,
    "clinicName": "Harbour Women's Health",
    "suburb": "Docklands",
    "rating": 4.8,
    "contact": "03 9020 1122",
    "longitude": 144.942,
    "latitude": -37.814
  },
  {
    "id": 18,
    "clinicName": "Bloom Breast Screening",
    "suburb": "Malvern",
    "rating": 4.9,
    "contact": "03 9500 1234",
    "longitude": 145.0304,
    "latitude": -37.8708
  },
  {
    "id": 19,
    "clinicName": "CareFirst Medical Centre",
    "suburb": "Bentleigh",
    "rating": 4.6,
    "contact": "03 9576 9090",
    "longitude": 145.0347,
    "latitude": -37.9222
  },
  {
    "id": 20,
    "clinicName": "Hope Family Health",
    "suburb": "Oakleigh",
    "rating": 4.5,
    "contact": "03 9568 8765",
    "longitude": 145.0886,
    "latitude": -37.8983
  }
]
